[
  {
    "Name": "江门开心之旅哈哈度假别墅",
    "Price": 11649,
    "Description": "这里是我精心准备的家。有缘来住下的朋友，希望它能为你带来一段温馨难忘的旅途体验。",
    "Address": "江门恩平市恒大泉都",
    "lat": 22.32672597839618,
    "lng": 112.35289303029232,
    "Comments": null,
    "CommentCount": 4
  },
  {
    "Name": "江门SZ旅游之家度假别墅",
    "Price": 7504,
    "Description": "遇见有趣的人，体验不一样的家。",
    "Address": "江门恩平市恩平山泉湾温泉度假别墅",
    "lat": 22.334469015958142,
    "lng": 112.2353679899524,
    "Comments": null,
    "CommentCount": 1
  },
  {
    "Name": "江门广州丽豪度假别墅(3号店)",
    "Price": 7062,
    "Description": "这里是我精心准备的家。有缘来住下的朋友，希望它能为你带来一段温馨难忘的旅途体验。",
    "Address": "恒大泉都",
    "lat": 22.32672597839618,
    "lng": 112.35289303029232,
    "Comments": null,
    "CommentCount": 0
  },
  {
    "Name": "江门SZ旅游之家度假民宿（恒大泉都碧街分店）",
    "Price": 7001,
    "Description": "遇见有趣的人，体验不一样的家。",
    "Address": "江门市恩平市恒大泉都碧街8街19号",
    "lat": 22.325996985172925,
    "lng": 112.35293498115963,
    "Comments": null,
    "CommentCount": 2
  },
  {
    "Name": "恩平金山温泉度假村",
    "Price": 6299,
    "Description": "恩平金山温泉度假村地处珠江三角洲恩平市那吉镇，沿三二五国道进入侨乡恩平，留意相关的指示牌，便可到达。这里山清水秀、空气清新、地下热资源丰富、乡土文化洋溢四周，恬静、优美的大自然景色及其独特的旅游资源成为南方一个旅游新景点。\n　　    恩平金山温泉度假村以天然温泉取胜，泉涌区自然水温常年达摄氏80度以上，露天泉涌300多处，日流量2000多立方米，素有“天下第二泉”之称。那日夜蒸腾不息，白烟缭绕不散的温泉奇观令人神往。\n　　    恩平金山温泉度假村建有大小、功能各异的温泉泳池，红男绿女俱入水中尽情浸浴，仿佛置身于如梦如幻的世界中，尘世俗类，瞬间即逝，其乐无穷。",
    "Address": "那吉镇535县道",
    "lat": 22.172605034587132,
    "lng": 112.12416849901147,
    "Comments": null,
    "CommentCount": 303
  },
  {
    "Name": "江门Cheng艺度假别墅",
    "Price": 5492,
    "Description": "这里是我精心准备的家。有缘来住下的朋友，希望它能为你带来一段温馨难忘的旅途体验。",
    "Address": "江门台山市颐和温泉城大酒店M3",
    "lat": 22.188958899990617,
    "lng": 112.76418642993578,
    "Comments": null,
    "CommentCount": 2
  },
  {
    "Name": "江门信誉人生度假别墅",
    "Price": 5436,
    "Description": "尊敬的宾客: 我们所做的一切都只为每一位宾客带来不一样的度假体验，相信凭借其脚踏实地的工作，认认真真的学习和獻獄无闻的付出，别墅将创造健康时代不朽的传奇。让更多的人了解别墅、体验别墅另内风情",
    "Address": "江门恩平市江门恩平恒大泉都温泉别墅",
    "lat": 22.32330096392006,
    "lng": 112.3541469749533,
    "Comments": null,
    "CommentCount": 0
  },
  {
    "Name": "江门飞翔的人生度假别墅",
    "Price": 4790,
    "Description": "这里是我精心准备的家。有缘来住下的朋友，希望它能为你带来一段温馨难忘的旅途体验。",
    "Address": "新会碧桂园(南门)",
    "lat": 22.507726033660884,
    "lng": 113.05901999991265,
    "Comments": null,
    "CommentCount": 0
  },
  {
    "Name": "江门温泉别墅",
    "Price": 4563,
    "Description": "这里是我精心准备的家。有缘来住下的朋友，希望它能为你带来一段温馨难忘的旅途体验。",
    "Address": "恒大泉都",
    "lat": 22.32672597839618,
    "lng": 112.35289303029232,
    "Comments": null,
    "CommentCount": 0
  },
  {
    "Name": "江门小马欢腾度假别墅",
    "Price": 4506,
    "Description": "这里是我精心准备的家。有缘来住下的朋友，希望它能为你带来一段温馨难忘的旅途体验。",
    "Address": "江门恩平市良西镇",
    "lat": 22.329165428405656,
    "lng": 112.31355623920983,
    "Comments": null,
    "CommentCount": 0
  },
  {
    "Name": "恩平御墅温泉度假别墅",
    "Price": 4219,
    "Description": "恩平御墅温泉度假别墅座落在美丽的侨乡恩平市大田镇朗底河边，风景秀丽，山林葱郁、周边山丘延绵起伏，明月松间，清泉石上，树影婆娑，氤氲香弥与山泉湾特色三水“温泉水、山泉水、山涧水”相映成趣。三水潺潺流淌，轻烟漫舞，宛若人间仙境让每一位来到山泉湾的游客，都彷佛走入一片久违的山水世外桃园。温泉城占地约三百余亩，集温泉养生、水上运动、棋牌娱乐、休闲度假、会议观光等多种功能于一体的生态养生旅游大境。 别墅共6房8床，2张1.8米，2张1.5米，4张1.2米，别墅提供：天然温泉水一池，电烧烤炉、麻将机、电磁炉，冰箱，电饭煲，可同时容纳10-15人娱乐，别墅安全舒适自然，卫生清洁整齐",
    "Address": "大田镇山泉湾温泉别墅街33号",
    "lat": 22.334533954538536,
    "lng": 112.23774203175337,
    "Comments": null,
    "CommentCount": 7
  },
  {
    "Name": "趣墅度假别墅（台山颐和温泉城店）",
    "Price": 4007,
    "Description": "趣墅度假别墅（台山颐和温泉城店）位于台山市三合镇温泉圩颐和温泉城内，是一个以养生温泉、休闲旅游、生态居住、休养度假为主题的高端国际温泉旅游度假区，拥有原生态温泉、北峰山国家森林公园等丰富的自然资源。\n　　趣墅台山颐和城店，是颐和温泉城内极具艺术感的度假别墅，简约的后现代装修风格，室内以清新的纯白、原木色调为主，营造了轻快自然的空间感。大面积的落地窗搭配质感轻盈的白色帐幔，赋予了空间与度假生活的更多可能性。别墅内有多间客房，舒适度MAX的床品，全套P&G、联合利华洗漱用品、WIFI全覆盖；还有厨房以及全套烹饪设备；无论是家庭度假、亲友聚会、公司欢聚，或是商务接待等，趣墅都能为你提供完美的度假地。\n　　趣墅，全国领先的别墅度假品牌。作为“趣味度假魔法师”的首倡者，希望为客人带来有趣而美好的度假体验。目前，趣墅已遍布华南热门旅游目的地，在线精品别墅超过1000栋，服务人次超过60万。同时，趣墅也即将进驻三亚、杭州、成都、重庆等地，让更多人可以睡进有趣的度假别墅，躺进1000种理想生活里。",
    "Address": "温泉颐和城颐乐2街6号301",
    "lat": 22.190996019691976,
    "lng": 112.76608401049442,
    "Comments": null,
    "CommentCount": 51
  },
  {
    "Name": "江门代立琼度假别墅",
    "Price": 3995,
    "Description": "这里是我精心准备的家。有缘来住下的朋友，希望它能为你带来一段温馨难忘的旅途体验。",
    "Address": "良西镇恒大泉都",
    "lat": 22.32672597839618,
    "lng": 112.35289303029232,
    "Comments": null,
    "CommentCount": 0
  },
  {
    "Name": "江门恩平恒大泉都现代风高端温泉别墅",
    "Price": 3862,
    "Description": "各位朋友，我家装修时尚大气、环境优美，欢迎大家过来度假，给您一个不一样的旅程",
    "Address": "恒大泉都途家公寓酒店",
    "lat": 22.33880395425998,
    "lng": 112.35325396944611,
    "Comments": null,
    "CommentCount": 6
  },
  {
    "Name": "江门恒大泉都温泉别墅(3号店)",
    "Price": 3839,
    "Description": "这里是我精心准备的家。有缘来住下的朋友，希望它能为你带来一段温馨难忘的旅途体验。",
    "Address": "良西镇",
    "lat": 22.329165428405656,
    "lng": 112.31355623920983,
    "Comments": null,
    "CommentCount": 0
  },
  {
    "Name": "江门吕众民度假别墅",
    "Price": 3820,
    "Description": "这里是我精心准备的家。有缘来住下的朋友，希望它能为你带来一段温馨难忘的旅途体验。",
    "Address": "恩平恒大泉都温泉别墅(恒大泉都)",
    "lat": 22.32672597839618,
    "lng": 112.35289303029232,
    "Comments": null,
    "CommentCount": 2
  },
  {
    "Name": "江门竹外云艺墅",
    "Price": 3503,
    "Description": "江门竹外云艺墅为博悦酒店集团又一倾城力作，荟萃欧陆装饰设计巨匠、东方园林名师，打造高端民宿品牌“竹外云”艺墅 云集全球各国文物珍品、精美家俱、奢华洁具、高端家纺，让人倾心夺慕、惊叹不已。竹外云是你的完美假期，亦是私享聚会不二臻选，可来一场难忘的派对，更可举办一场INS风的完美婚礼...... 在此，可以尽情舒展身体和心灵，寻觅宁静中的洒脱。你能听一夜竹风轻逸、枕一池鱼水之乐，放慢如诗的生活。 象竹外的云，闲适、从容。且有形、有意、有境。",
    "Address": "五邑碧桂园街",
    "lat": 22.634408342405198,
    "lng": 113.05539327107842,
    "Comments": null,
    "CommentCount": 0
  },
  {
    "Name": "江门简先生Nick度假别墅",
    "Price": 3422,
    "Description": "体验生活",
    "Address": "恒大泉都(沈海高速开阳段圣堂出口右转直行3km处恒大泉都)",
    "lat": 22.32672597839618,
    "lng": 112.35289303029232,
    "Comments": null,
    "CommentCount": 1
  },
  {
    "Name": "江门简先生Nick度假别墅(学前北路分店)",
    "Price": 3258,
    "Description": "体验生活",
    "Address": "恒大泉都(沈海高速开阳段圣堂出口右转直行3KM处恒大泉都)",
    "lat": 22.32672597839618,
    "lng": 112.35289303029232,
    "Comments": null,
    "CommentCount": 1
  },
  {
    "Name": "江门温馨满屋哈哈度假别墅",
    "Price": 3171,
    "Description": "远离城市的喧嚣，没有烦恼，没有忧愁，让自己释然一段时光，祝有缘入住的朋友们都有美好的回忆！",
    "Address": "恩平海泉时光度假公寓酒店(恒大泉都店)(距离市中心公里，交通方便)",
    "lat": 22.33785397182958,
    "lng": 112.35234596223692,
    "Comments": null,
    "CommentCount": 0
  },
  {
    "Name": "江门张三毛度假别墅(2号店)",
    "Price": 3161,
    "Description": "这里是我精心准备的家。有缘来住下的朋友，希望它能为你带来一段温馨难忘的旅途体验。",
    "Address": "恒大泉都",
    "lat": 22.32672597839618,
    "lng": 112.35289303029232,
    "Comments": null,
    "CommentCount": 1
  },
  {
    "Name": "趣墅江门恒大泉都温泉度假别墅",
    "Price": 3089,
    "Description": "趣墅江门恒大泉都温泉度假别墅位于广东恩平良西镇森林温泉度假城，紧邻沈海高速开阳段圣堂出口。项目拥三大天然小苏打泉眼，将配备五国温泉小镇、运动中心、商业中心、会议中心、恒大酒店、风情酒吧街等配套。打造一个集旅游、观光、商务以及住宅于一体的旅游综合体。\n　　入住趣墅恒大泉都别墅，能感受到与城市中截然不同的气息。没有燥热呛人的尾气味，空气的清风裹挟着泥土的自然芬芳，还未入住，身体已经先一步感受到了假期的召唤。别墅充分的利用每个空间，满足都市人的生活趣味。每个房间均使用高星级的床上用品，保证您的睡眠质量；设施齐全的家庭厨房，可助您一展厨艺。\n　　趣墅，全国领先的别墅度假品牌。作为“趣味度假魔法师”的首倡者，我们希望为客人带来有趣而美好的度假体验。无论是家庭度假、亲友聚会、公司欢聚，或是商务接待等，趣墅都能为你提供完美的度假地。目前，趣墅已遍布华南热门旅游目的地，在线精品别墅超过1000栋，服务人次超过60万。同时，趣墅也即将进驻三亚、杭州、成都、重庆等地，让更多人可以睡进有趣的度假别墅，躺进1000种理想生活里。",
    "Address": "恒大泉都碧街8街19号",
    "lat": 22.325996985172925,
    "lng": 112.35293498115963,
    "Comments": null,
    "CommentCount": 180
  },
  {
    "Name": "江门老树下度假别墅",
    "Price": 2965,
    "Description": "小栈自住房设计，自住房装修，装修材料和配套设施都是用的知名品牌，本来打算就是自己的假期带小孩回去度假住住的，后来很多去过的朋友和同事都说我“太自私”，说这么好的房源和这么优质的旅游资源应该拿出来大家都可以享用，在他们的“怂恿”下，考虑自己既可以赚多一份奶粉钱又可以给岛上的旅游出一份力，还可以认识那么多来自五湖四海的可爱的你们，让你们感受到我们的大美上川，于是我们的老树下小栈就上线了，欢迎你们入住我们小栈，我们将尽自己的努力最饱满的热情让您神往而来尽兴而归！",
    "Address": "沙塘村",
    "lat": 21.693347257204298,
    "lng": 112.80544964437021,
    "Comments": null,
    "CommentCount": 2
  },
  {
    "Name": "江门恒大泉都好日子联排别墅",
    "Price": 2945,
    "Description": "位于别墅区，环境优美私家大花园私密性强，独栋别致装修，被誉为广东省温泉旅游度假胜地。 房屋描述 设备包含wifi，空调，24小时热水，一次性洗漱用品及拖鞋，厨具，麻将，花园，电视机 新房豪华装修，生活用品齐全，专人管理，床品一客一换。 周边设施:花海世界，幸福田园，附近很多特色农家乐!也有许多温泉度假村是休闲娱乐养生好去处! 广东省恩平市良西镇，紧邻沈海高速开阳段圣堂出口右行3KM处。",
    "Address": "江门恩平市恒大泉都碧泉八街35号",
    "lat": 22.32672597839618,
    "lng": 112.35289303029232,
    "Comments": null,
    "CommentCount": 0
  },
  {
    "Name": "江门恒大泉都李小姐度假别墅(2号店)",
    "Price": 2933,
    "Description": "这里是我精心准备的家。有缘来住下的朋友，希望它能为你带来一段温馨难忘的旅途体验。",
    "Address": "恒大泉都温泉别墅",
    "lat": 22.32330096392006,
    "lng": 112.3541469749533,
    "Comments": null,
    "CommentCount": 0
  },
  {
    "Name": "江门麦剑欣度假别墅",
    "Price": 2915,
    "Description": "这里是我精心准备的家。有缘来住下的朋友，希望它能为你带来一段温馨难忘的旅途体验。",
    "Address": "江门恩平市恒大泉都",
    "lat": 22.32672597839618,
    "lng": 112.35289303029232,
    "Comments": null,
    "CommentCount": 1
  },
  {
    "Name": "江门Lucky～度假别墅",
    "Price": 2791,
    "Description": "用心接待每位宾客",
    "Address": "良西镇(恒大泉都)",
    "lat": 22.32672597839618,
    "lng": 112.35289303029232,
    "Comments": null,
    "CommentCount": 0
  },
  {
    "Name": "江门悦客の家度假别墅",
    "Price": 2755,
    "Description": "这里是我精心准备的家。有缘来住下的朋友，希望它能为你带来一段温馨难忘的旅途体验。",
    "Address": "江门恩平市江门恩平恒大泉都温泉别墅",
    "lat": 22.32330096392006,
    "lng": 112.3541469749533,
    "Comments": null,
    "CommentCount": 0
  },
  {
    "Name": "台山富丽湾大酒店",
    "Price": 2691,
    "Description": "台山富丽湾大酒店是一家欧式外观风格的综合型度假酒店。项目坐落于台山市富丽湾旅游度假区内，拥有不同室内装修风格的豪华客房、大小会议室15个及可同时容纳2000人就餐的宴会中心，伦格里岛海鲜自助餐厅正在紧张筹建中。本酒店交通便利，连接广佛、佛开、新台高速、广深高速、虎门大桥、京珠高速、西部沿海高速都斛出口离度假区仅800米。由广州出发经广佛--佛开--新台高速（斗山出口大环岛转左直行新会方向10公里）。深圳、东莞地区经虎门大桥--京珠高速--珠海下栅直接转入西部沿海高速--崖门大桥--都斛出口。富丽湾旅游度假区首期工程占地面积300多亩，景区内景色怡人，环境幽雅，空气清新、自然格调浪漫迷人。这里没有都市的繁嚣，唯见树木葱葱、小草绿绿、环山抱水，整体结构布置亲近大自然。富丽湾温泉就是在这样的青山秀水中涌出地面，温泉清澈见底，水质优良，属纯天然深海咸水温泉，无任何工业污染。温泉水富含钠、锂、偏硅酸等多种具矿物元素，浸浴后皮肤爽滑，对肥胖症、风湿病、各类皮肤病均有良好效果。温泉区设有大小温泉池60多个，其中有：水疗按摩池、儿童游乐池、水上乐园（限时开放）、药疗池、石板床、鱼疗池、游泳池、原汤池等，最吸引女士的要算牛奶池了，泡在其中香气扑鼻，美容健身之余还让宾客尽显尊贵。附近其他旅游资源同样丰富，邻近景点有猛虎峡生态漂流景区、虎穴谷溯溪、新会小鸟天堂、崖门古炮台、银湖湾湿地公园、海角城海水浴场、上下川岛、黑沙湾海水浴场旅游区等，都斛海鲜街更是闻名遐迩，声名远播。",
    "Address": "富丽湾旅游度假区内",
    "lat": 22.094784529961757,
    "lng": 112.96509685887298,
    "Comments": null,
    "CommentCount": 342
  },
  {
    "Name": "江门碧泉度假别墅",
    "Price": 2562,
    "Description": "这里是我精心准备的家。有缘来住下的朋友，希望它能为你带来一段温馨难忘的旅途体验。",
    "Address": "江门市恩平市良西镇学前北路良西中心小学附近恒大泉都碧泉八街",
    "lat": 22.32672597839618,
    "lng": 112.35289303029232,
    "Comments": null,
    "CommentCount": 11
  },
  {
    "Name": "江门123旅游度假别墅",
    "Price": 2549,
    "Description": "这里是我精心准备的家。有缘来住下的朋友，希望它能为你带来一段温馨难忘的旅途体验。",
    "Address": "江门恩平市趣墅恩平山泉湾温泉度假别墅(别墅)",
    "lat": 22.334469015958142,
    "lng": 112.2353679899524,
    "Comments": null,
    "CommentCount": 0
  },
  {
    "Name": "江门Sunnie1644客栈",
    "Price": 2547,
    "Description": "这里是我精心准备的家。有缘来住下的朋友，希望它能为你带来一段温馨难忘的旅途体验。",
    "Address": "江门台山市肖美村(肖美村)",
    "lat": 21.871142644529186,
    "lng": 112.67551379476963,
    "Comments": null,
    "CommentCount": 0
  },
  {
    "Name": "江门一路花香度假别墅",
    "Price": 2519,
    "Description": "怡景别墅位于水禾田温泉旁边，只需步行20米就可以泡温泉♨️，泡完温泉可步行回去睡觉！而且别墅设施齐全，有冰箱洗衣机微波炉等设施！特别适合家庭出游或朋友聚会，可以烧烤，打麻将，做饭！房间装修简单大方温馨，让你体验家一般的感觉！",
    "Address": "泉林黄金小镇(悦泉湾79号)",
    "lat": 22.171484993644462,
    "lng": 112.38751695853527,
    "Comments": null,
    "CommentCount": 4
  },
  {
    "Name": "江门Cheng艺度假别墅(温泉圩直街分店)",
    "Price": 2501,
    "Description": "这里是我精心准备的家。有缘来住下的朋友，希望它能为你带来一段温馨难忘的旅途体验。",
    "Address": "江门市台山市温泉圩直街S367(温泉圩E7)",
    "lat": 22.19049680305295,
    "lng": 112.76341909736941,
    "Comments": null,
    "CommentCount": 1
  },
  {
    "Name": "江门甄生公寓(4号店)",
    "Price": 2417,
    "Description": "这里是我精心准备的家。有缘来住下的朋友，希望它能为你带来一段温馨难忘的旅途体验。",
    "Address": "三江大道",
    "lat": 22.37315925412269,
    "lng": 112.6815076116219,
    "Comments": null,
    "CommentCount": 0
  },
  {
    "Name": "江门信誉人生度假别墅(升平路分店)",
    "Price": 2294,
    "Description": "尊敬的宾客: 我们所做的一切都只为每一位宾客带来不一样的度假体验，相信凭借其脚踏实地的工作，认认真真的学习和獻獄无闻的付出，别墅将创造健康时代不朽的传奇。让更多的人了解别墅、体验别墅另内风情",
    "Address": "江门恩平市恒大泉都",
    "lat": 22.32672597839618,
    "lng": 112.35289303029232,
    "Comments": null,
    "CommentCount": 1
  },
  {
    "Name": "江门恩平恒大泉都豪华私家温泉别墅",
    "Price": 2130,
    "Description": "这里是我精心准备的家。有缘来住下的朋友，希望它能为你带来一段温馨难忘的旅途体验。",
    "Address": "恒大泉都",
    "lat": 22.32672597839618,
    "lng": 112.35289303029232,
    "Comments": null,
    "CommentCount": 32
  },
  {
    "Name": "恩平泉都温泉度假别墅",
    "Price": 2118,
    "Description": "恩平泉都温泉度假别墅位于中国温泉之乡广东恩平良西镇，紧邻沈海高速开阳段圣堂出口。项目拥三大天然小苏打泉眼，将配备异国温泉小镇、运动中心、商业中心、会议中心、恒大酒店、风情酒吧街、社区医疗等配套。打造一个集旅游、观光、商务以及住宅于一体的旅游综合体。",
    "Address": "良西镇碧泉路恒大泉都小区29号",
    "lat": 22.333988954255382,
    "lng": 112.35142331264794,
    "Comments": null,
    "CommentCount": 176
  },
  {
    "Name": "江门多娜娜度假别墅",
    "Price": 2044,
    "Description": "这里是我精心准备的家。有缘来住下的朋友，希望它能为你带来一段温馨难忘的旅途体验。",
    "Address": "泉林黄金小镇",
    "lat": 22.171484993644462,
    "lng": 112.38751695853527,
    "Comments": null,
    "CommentCount": 1
  },
  {
    "Name": "江门恩平泉林黄金小镇中空别墅求婚结婚聚会(2号店)",
    "Price": 1947,
    "Description": "可以调整为两房三房四房",
    "Address": "泉林黄金小镇(上了大斜坡转左，见到环岛转左)",
    "lat": 22.171484993644462,
    "lng": 112.38751695853527,
    "Comments": null,
    "CommentCount": 0
  },
  {
    "Name": "江门aken度假别墅",
    "Price": 1930,
    "Description": "这里是我精心准备的家。有缘来住下的朋友，希望它能为你带来一段温馨难忘的旅途体验。",
    "Address": "恩平泉林黄金小镇·华侨公馆-二期(泉林黄金小镇·华侨公馆二期)",
    "lat": 22.16966598134647,
    "lng": 112.38857902513936,
    "Comments": null,
    "CommentCount": 2
  },
  {
    "Name": "江门升旅度假别墅(学前北路分店)",
    "Price": 1907,
    "Description": "心宽，便是远方",
    "Address": "江门恩平市良西镇学前北路恒大泉都",
    "lat": 22.32672597839618,
    "lng": 112.35289303029232,
    "Comments": null,
    "CommentCount": 46
  },
  {
    "Name": "恩平自游度假温泉别墅",
    "Price": 1890,
    "Description": "自游度假温泉别墅(恩平恒大泉都店)位于中国温泉之乡--恩平，紧邻沈海高速(开阳段)圣堂出口，高速直达、轻轨接驳，畅享1小时珠三角生活圈。这里有各式别墅，可以享受公司聚会、为家庭出游提供舒适温馨的住所。",
    "Address": "良西镇恒大泉都碧泉七街73号",
    "lat": 22.337975571951834,
    "lng": 112.35212551806487,
    "Comments": null,
    "CommentCount": 14
  },
  {
    "Name": "江门芒果优房度假别墅（山泉湾店）",
    "Price": 1835,
    "Description": "这里是我精心准备的家。有缘来住下的朋友，希望它能为你带来一段温馨难忘的旅途体验。",
    "Address": "江门恩平市恩平山泉湾温泉度假别墅",
    "lat": 22.334469015958142,
    "lng": 112.2353679899524,
    "Comments": null,
    "CommentCount": 0
  },
  {
    "Name": "恩平恒大泉都享途温泉度假别墅",
    "Price": 1767,
    "Description": "恩平恒大泉都享途温泉度假别墅位于中国温泉之乡－－恩平，紧邻沈海高速(开阳段)圣堂出口，高速直达、轻轨接驳，畅享1小时珠三角生活圈。\n\n恒大泉都，总规划用地近万亩，首期总建筑面积约197万㎡。拥10万㎡国际级航母配套，荟萃8大风情温泉馆、结合原生态百亩森林公园、百亩生态果园，森林别墅，天然温泉入户;欧陆湖山洋房，满屋名牌9A精装，缔造尊尚品质生活。恒大泉都，带您奢享泉世界!",
    "Address": "良西镇恒大泉都33街20号",
    "lat": 22.32726097773568,
    "lng": 112.35306397783083,
    "Comments": null,
    "CommentCount": 40
  },
  {
    "Name": "江门爱旅途温泉假日公寓(学前北路分店)",
    "Price": 1761,
    "Description": "有朋自远方来，不亦乐乎。",
    "Address": "江门恩平学前北路29号良西中心小学附近恒大泉都别墅228号",
    "lat": 22.32331960288876,
    "lng": 112.35536552637717,
    "Comments": null,
    "CommentCount": 0
  },
  {
    "Name": "江门古兜月泉湖居酒店",
    "Price": 1716,
    "Description": "“人生欲歇息，月泉湖边居”中国陈皮文化主题酒店——月泉湖居，坐落于广东新会古兜温泉小镇天然山泉湖畔。古榕树下，月泉相映，沾染文墨书香，斟酌柑普茶道……是享受温泉蜜月假期、家庭精致休闲、高端商务、高品质度假养生人士的向往之地。\n　　月泉湖居把别具地方特色的白沙儒家文化与陈皮养生文化融于一体，缔造人文情怀与休闲养生的旅居典范。在这里，沏一壶山泉水秘制的陈皮柑普茶、品尝私厨定制的陈皮养生美食、牵着爱人的手漫步在岛上的小桥，荡漾着满满的幸福，湖中的玻璃小船摇曳着甜蜜的小情侣，青山为盟，湖海作证，此时此刻忘却在月泉湖居里……在月色朦胧的夜晚，畅游漫无边际的泳池中，或泡在温暖舒适陈皮温泉汤池里，仰望星空，倾听大自然的天籁之音，不让尘世的喜怒哀乐扰乱心境，清心静气，逍遥自在，诗与远方就在眼前。\n　　酒店由环抱着古榕树的白沙楼和茅龙楼组成，精心设计茅龙、茅君、楚云台、春阳台等新会人文特色主题温泉套房，每个温泉套房带有大露台，网红温泉缸，智能马桶，客房面积80-1100平方不等，超大舒适的度假空间。月泉湖居还配套陈皮文化体验馆、柑香馆陈皮主题餐厅、月泉汤温泉区、生态月泉岛……此外，还有尊享私家院落——钓台院，配套私家庭院、无边际泳池、温泉泡池，静养亭，白沙钓台等。酒店以纯粹的地方特色文化，期待与每一位走心的人相遇，共度一段长久回味的时光。",
    "Address": "崖门镇古兜度假邨1号2号楼",
    "lat": 22.242926608237244,
    "lng": 113.03590121290871,
    "Comments": null,
    "CommentCount": 52
  },
  {
    "Name": "恩平泉都温泉钻石别墅",
    "Price": 1716,
    "Description": "恩平泉都温泉钻石别墅欢迎您！",
    "Address": "良溪镇恒大泉都碧泉",
    "lat": 22.32672597839618,
    "lng": 112.35289303029232,
    "Comments": null,
    "CommentCount": 208
  },
  {
    "Name": "江门恒大泉都四叶草别墅（公寓）",
    "Price": 1715,
    "Description": "这里是我精心准备的家。有缘来住下的朋友，希望它能为你带来一段温馨难忘的旅途体验。",
    "Address": "江门恩平市恒大泉都",
    "lat": 22.32672597839618,
    "lng": 112.35289303029232,
    "Comments": null,
    "CommentCount": 3
  },
  {
    "Name": "江门别墅自驾游(30号店)",
    "Price": 1680,
    "Description": "你要大隐于市，也要玩得尽兴。",
    "Address": "恒大泉都",
    "lat": 22.32672597839618,
    "lng": 112.35289303029232,
    "Comments": null,
    "CommentCount": 0
  }
]
