[
  {
    "Name": "江门佰盛公寓",
    "Price": 42,
    "Description": "江门佰盛公寓，位于江海区麻一龙桥里一路47号，工业区商业地带，周边设施齐全，配套周齐，购物餐饮配置便捷，客服干净舒适，欢迎入住",
    "Address": "麻一龙桥里一路47号",
    "lat": 22.579826209928004,
    "lng": 113.13542986656614,
    "Comments": null,
    "CommentCount": 4
  },
  {
    "Name": "江门迷你公寓",
    "Price": 43,
    "Description": "江门迷你公寓位于江门市江海区外海镇西园里一巷一号，地处外海镇中心地带。民风淳朴，附近更有很多本土特色为游乐餐饮，外海面更是享誉江门，游客可一尝细味。",
    "Address": "外海直冲西元里一巷一号",
    "lat": 22.595276013109423,
    "lng": 113.16027304441967,
    "Comments": null,
    "CommentCount": 104
  },
  {
    "Name": "江门鸿健旅馆",
    "Price": 46,
    "Description": "旅馆所处地理位置优越，环境舒适，周边设施完善，交通便利。我们的服务是您的可靠选择哦~！",
    "Address": "书院路20号",
    "lat": 22.582074916858346,
    "lng": 113.09757562182901,
    "Comments": null,
    "CommentCount": 28
  },
  {
    "Name": "OYO江门鑫旺宾馆",
    "Price": 48,
    "Description": "对于想要捕捉江门城市风采的旅客来说，宾馆是一个理想的选择。酒店距离江门火车站仅有4km。若是计划在酒店周边好好游玩，东湖公园和白水带风景名胜区定能满足您的需求。\n在一天的忙碌后，您可以在酒店尽情的享受各种体育和休闲设施。",
    "Address": "白沙大道西18号109室（含二、三层）",
    "lat": 22.576492110658517,
    "lng": 113.07705635759714,
    "Comments": null,
    "CommentCount": 4
  },
  {
    "Name": "开平好景旅馆",
    "Price": 50,
    "Description": "开平好景旅馆，位于开平市良园路河清里商铺(义祠车站对面)。拥有大型停车场，环境优美，价格实惠，是您入住的好地方！",
    "Address": "良园路河清里商铺(义祠车站对面)",
    "lat": 22.372423530978935,
    "lng": 112.69663035221625,
    "Comments": null,
    "CommentCount": 1
  },
  {
    "Name": "江门宾至如归旅馆",
    "Price": 50,
    "Description": "邻近学校，地点闹中带静，交通便利。宾馆客房干净卫生，雅致舒适，价格低廉，服务周到。",
    "Address": "凤阳街8号之二",
    "lat": 22.596026614604753,
    "lng": 113.10719054591964,
    "Comments": null,
    "CommentCount": 33
  },
  {
    "Name": "开平良园旅馆",
    "Price": 51,
    "Description": "开平良园旅馆，位于幕沙路117号，价格优惠，房间整洁 ，舒适卫生，是您出行的优先之选",
    "Address": "幕沙路117号",
    "lat": 22.38435425994257,
    "lng": 112.69019243198441,
    "Comments": null,
    "CommentCount": 39
  },
  {
    "Name": "江门金丰旅馆",
    "Price": 52,
    "Description": "江门金丰旅店交通便利，地理位置优越，周边餐饮娱乐丰富，是您外出入住的好去处。",
    "Address": "江边里153号",
    "lat": 22.591163276658072,
    "lng": 113.10217222057967,
    "Comments": null,
    "CommentCount": 6
  },
  {
    "Name": "江门缘汇公寓",
    "Price": 54,
    "Description": "不论是商务还是休闲旅客，江门缘汇公寓都能让您的江门之行变得更加美好而难忘。通过公路交通到达江门火车站大约16km远。附近有很多景点，包括公坑禾雀花和大西坑公园均可供您游览参观。\n酒店提供的休闲设施，旨在为旅客营造多姿多彩、奢华完美的住宿体验。",
    "Address": "江门蓬江区棠下镇金岭工业区富强路50号",
    "lat": 22.671693853538237,
    "lng": 113.03785152040756,
    "Comments": null,
    "CommentCount": 0
  },
  {
    "Name": "江门江月宾馆(横岭分馆)",
    "Price": 54,
    "Description": "江月宾馆位于江门市蓬江区白沙大道东横岭街，紧邻市中心，步行即可到达；距离江门东站约需十分钟车程，驾车前往新会火车站约需二十分钟；东仓里美术馆、中山公园、东湖公园等景点都在附近，您可前往感受当地文化，欣赏美景；附近云集各类美食店铺，上井寿司屋、真功夫、关东食府等等，您可根据口味前去品尝。\n　　宾馆房型多样，提供单人间、双人间、四人间等，房间内为简约素雅的风格，白色的床品整洁干净，宽大的绒面靠背柔软而富有弹性，给您打造了一个良好的休息环境，让您离家之外也能拥有安睡的夜晚；电视机、空调、独立WiFi等设施齐全，热水洗浴助您洗去旅途中的疲惫；若有需要，贴心的工作人员还会为您提供叫醒服务。\n　　江月宾馆真诚地祝愿您可以在这里度过浪漫的一晚！",
    "Address": "江门市横岭街5号",
    "lat": 22.589899267397026,
    "lng": 113.09195488023796,
    "Comments": null,
    "CommentCount": 68
  },
  {
    "Name": "开平名城宾馆",
    "Price": 57,
    "Description": "开平名城宾馆，位于开平市长沙区幕沙路112号，邻近华润万家及车站，交通方便，价格实惠",
    "Address": "幕沙路112号",
    "lat": 22.383129878678787,
    "lng": 112.69171568234904,
    "Comments": null,
    "CommentCount": 0
  },
  {
    "Name": "江门荷塘兴鸿出租房",
    "Price": 57,
    "Description": "酒店房间设施齐全，干净卫生，宽敞明亮，欢迎入住！ 【温馨提示】 1. 不支持刷卡 2. 不提供发票 3.使用空调加20元",
    "Address": "荷塘镇民兴路13号",
    "lat": 22.652907826579533,
    "lng": 113.14493729133471,
    "Comments": null,
    "CommentCount": 0
  },
  {
    "Name": "江门黄锦培公寓",
    "Price": 57,
    "Description": "这里是我精心准备的家。有缘来住下的朋友，希望它能为你带来一段温馨难忘的旅途体验。",
    "Address": "江门鹤山市沙坪街道中山路2号",
    "lat": 22.767604743487382,
    "lng": 112.96904981004796,
    "Comments": null,
    "CommentCount": 1
  },
  {
    "Name": "开平福来旅馆",
    "Price": 57,
    "Description": "开平福来旅馆位于开平市幕沙路，步行到义祠车站约10分钟，到益华广场约3分钟，出门到处有超市、餐馆、市场、街口公交车多，购物出行交通方便。\n　　旅馆房间带独立卫生间，Wifi，中央热水，电视等，位置旺中带静，晚上休息十分安静；另提供厨房可煮饭！",
    "Address": "幕沙路94号4栋",
    "lat": 22.381885039405045,
    "lng": 112.69268594482496,
    "Comments": null,
    "CommentCount": 42
  },
  {
    "Name": "江门台城丽茵商务酒店",
    "Price": 58,
    "Description": "客房整洁，宽敞明亮，环境卫生，配套设施齐全，服务周到，方便入住",
    "Address": "江门台山市台城西荣街4、6号",
    "lat": 22.258100833215423,
    "lng": 112.80011775201751,
    "Comments": null,
    "CommentCount": 203
  },
  {
    "Name": "鹤山文边公寓",
    "Price": 58,
    "Description": "鹤山文边公寓，位于鹤山市中心，全新装修、拎包入住、价格实惠、安全舒适。因为客房不多，全部管理和卫生自己打理，虽不奢华，但保证干净整洁。 楼下有超市、餐馆、公交车停靠点，距离市政府、中医院、交警大队步时三分钟。欢迎各位朋友来电咨询或入住体验！",
    "Address": "文明路37号",
    "lat": 22.767233785407598,
    "lng": 112.97164806584992,
    "Comments": null,
    "CommentCount": 0
  },
  {
    "Name": "开平豪城旅馆",
    "Price": 58,
    "Description": "价格实惠，交通方便，地理位置优越，是您出行下榻的好住处，我们欢迎您的到来！",
    "Address": "新市南路13号",
    "lat": 22.452823307042195,
    "lng": 112.77483674005855,
    "Comments": null,
    "CommentCount": 0
  },
  {
    "Name": "台山北盛旅馆",
    "Price": 63,
    "Description": "地点闹中带静，交通便利。宾馆客房干净卫生，雅致舒适，价格低廉，服务周到，是您在台山出行的好选择。",
    "Address": "北盛街14、16号",
    "lat": 22.257955050575674,
    "lng": 112.79271106588673,
    "Comments": null,
    "CommentCount": 1
  },
  {
    "Name": "鹤山龙朝宾馆",
    "Price": 63,
    "Description": "邻近碧桂园及汽车总站，交通便利。宾馆客房干净卫生，雅致舒适，价格低廉，服务周到，是您在鹤山旅游、商务的最佳住宿选择",
    "Address": "鹤山大道579号",
    "lat": 22.756370742597905,
    "lng": 112.96089535015668,
    "Comments": null,
    "CommentCount": 24
  },
  {
    "Name": "江门江逸旅店",
    "Price": 64,
    "Description": "江门江逸旅店简约的房间设计，给疲惫旅途上的您，一种最贴心的问候和照顾。宽敞明亮的空间，温馨简约的装修格调，阳光下仿佛感觉到温度的存在，心底里的那股暖意油然而生，这里给予您的，是至上的享受和贴心的服务。",
    "Address": "礼乐文昌花园18幢",
    "lat": 22.560591696511292,
    "lng": 113.09024734519295,
    "Comments": null,
    "CommentCount": 14
  },
  {
    "Name": "开平站前公寓",
    "Price": 64,
    "Description": "开平站前公寓位于开平市水口镇325国道水口汽车站对面，交通便利，吃喝玩乐一应俱全，有停车场，是经济实惠出差旅行的不二之选。",
    "Address": "水口镇大宁路91号3楼",
    "lat": 22.456728798092836,
    "lng": 112.7759600520133,
    "Comments": null,
    "CommentCount": 1
  },
  {
    "Name": "鹤山东华宾馆",
    "Price": 65,
    "Description": "地点闹中带静，交通便利。宾馆客房干净卫生，雅致舒适，价格低廉，服务周到，内设停车场，是您在鹤山旅游、商务的最佳住宿选择。",
    "Address": "沙坪镇东华村12号",
    "lat": 22.25728743693195,
    "lng": 112.88288025557436,
    "Comments": null,
    "CommentCount": 28
  },
  {
    "Name": "江门丹霞宾馆",
    "Price": 65,
    "Description": "酒店位于江门市蓬江区建设路，广发银行江门支行以东20米，紧邻旧汽车站，位置优越，交通便利。江门兰悦风尚酒店倡导舒展松弛，拒绝乏味单调，酒店坚信您的驻留都会有心存喜悦的体验！宾馆开业时间2010年10月，主楼高2层，客房总数24间（套）。",
    "Address": "建设路49号嘉华大厦",
    "lat": 22.592914204845183,
    "lng": 113.08993904674202,
    "Comments": null,
    "CommentCount": 500
  },
  {
    "Name": "开平百乐门住宿公寓",
    "Price": 65,
    "Description": "价格实惠，欢迎入住，选择我们会是你可靠的选择，这里超市很多，也很方便哦~",
    "Address": "大宁路5号",
    "lat": 22.456523455112727,
    "lng": 112.77546398457561,
    "Comments": null,
    "CommentCount": 3
  },
  {
    "Name": "开平盛源旅店",
    "Price": 65,
    "Description": "开平盛源旅店，位于江门开平市水口镇丰田路49栋。价格实惠，欢迎入住",
    "Address": "丰田路49栋",
    "lat": 22.453607263350136,
    "lng": 112.77287045978943,
    "Comments": null,
    "CommentCount": 0
  },
  {
    "Name": "开平泮华旅馆",
    "Price": 65,
    "Description": "价格实惠，欢迎入住！周边交通便利，有很多商店，是您购物的好选择条件，期待您的选择！",
    "Address": "华龙路56号",
    "lat": 22.452837469425106,
    "lng": 112.7762876516771,
    "Comments": null,
    "CommentCount": 0
  },
  {
    "Name": "江门商务住宿",
    "Price": 66,
    "Description": "本店地理位置优越，空调、电视、热水器，每间房独立卫生间淋浴间，一应俱全，干净卫生，价格优惠，独栋小楼。 采光好，通风好，欢迎亲们预约入住！",
    "Address": "中东村住船里3巷1号",
    "lat": 22.56145503009424,
    "lng": 113.17859973444489,
    "Comments": null,
    "CommentCount": 0
  },
  {
    "Name": "OYO江门夜色繁星客栈",
    "Price": 66,
    "Description": "江门夜色繁星客栈位于广东省江门市蓬江区，地处水南路与江华里交叉口。附近有釜山公园、江门叁十三墟街、英雄山等景点，还有咖啡、茗都茶楼等等休闲场所，生活于此很是便利。且与蓬江区文化馆、城乡规划局相距不远，地段优越。\n　　\n　　客栈装修高档，风格偏欧式，公共区域布置温馨，还放置有诸多绿植、玩偶。房间内有电视机、空调、无线wifi等现代化设备，为您提供更优质的居住条件。入住于此，除了感受到生活上的便捷，还能体会到家人般的周到服务。\n　　\n　　江门夜色繁星客栈是您商务、旅游、休闲的理想选择，我们希望能赢得您的信赖。",
    "Address": "长发里江华小区1号之4",
    "lat": 22.589362531307223,
    "lng": 113.10557315583252,
    "Comments": null,
    "CommentCount": 79
  },
  {
    "Name": "江门168公寓",
    "Price": 68,
    "Description": "公寓地理优质优越，房间设施齐全，房间装修布置温馨，可提供24小时热水，价格实惠，欢迎各方来客预约入住。",
    "Address": "外海镇麻一豪杰里33号",
    "lat": 22.581742170496902,
    "lng": 113.12905037032803,
    "Comments": null,
    "CommentCount": 0
  },
  {
    "Name": "江门江海温馨公寓",
    "Price": 68,
    "Description": "本店精装修，有电脑，电视，空调，热水器，风扇，无线wifi，独立卫生间，1.5米床，单人间，双人间，设备齐全。距离佑启学校公交站319米，江门汽车总站外海客运招呼站2.6公里，江门火车站3.1公里，交通方便。竭诚欢迎您的光临！",
    "Address": "麻一东山里四路58号",
    "lat": 22.578925756464635,
    "lng": 113.13675995789025,
    "Comments": null,
    "CommentCount": 20
  },
  {
    "Name": "开平华宝旅馆",
    "Price": 68,
    "Description": "开平华宝旅馆，位于开平市长沙区幕沙路86号(长沙加油站对面)。环境优美，价格实惠",
    "Address": "开平市长沙区幕沙路86号(长沙加油站对面)",
    "lat": 22.381122296047064,
    "lng": 112.69344397274287,
    "Comments": null,
    "CommentCount": 6
  },
  {
    "Name": "江门祥太旅馆",
    "Price": 68,
    "Description": "江门祥太旅馆，位于江门市杜阮镇江杜中路21号。价格实惠，欢迎入住",
    "Address": "杜阮镇江杜中路21号",
    "lat": 22.606271809847232,
    "lng": 113.02090129627923,
    "Comments": null,
    "CommentCount": 6
  },
  {
    "Name": "江门鹤山快捷客栈",
    "Price": 68,
    "Description": "房间格局很合理，每个房间有阳台，有大窗，房间两边开，中间走廊很宽。每个房间都有空调，电视，无线网络，独立卫生间，24小时热水。有二个麻将房，二个电脑房，四个双床房，其余全是单间。",
    "Address": "鹤城填鹤城大道50号之107",
    "lat": 22.63120503615142,
    "lng": 112.83444752023995,
    "Comments": null,
    "CommentCount": 5
  },
  {
    "Name": "开平芙蓉阁旅业",
    "Price": 70,
    "Description": "开平芙蓉阁旅业位于长沙区宝源路，临近宝庭园，交通便利。\n　　旅业干净卫生， 客房整洁舒适，设有独立卫浴、24小时热水、电视等，环境干净卫生，为您提供便捷的住宿服务。",
    "Address": "宝源路8号二栋",
    "lat": 22.493170707508728,
    "lng": 113.0478351971133,
    "Comments": null,
    "CommentCount": 11
  },
  {
    "Name": "开平八方旅店",
    "Price": 71,
    "Description": "开平八方旅店位于江门开平市义祠路，客房经济实惠，温馨舒适，配套设施齐全，均配备独立卫浴、空调、24小时热水、无线上网等设施，是您差旅住宿的理想选择。",
    "Address": "义祠路26号",
    "lat": 22.38558677469367,
    "lng": 112.6914158908513,
    "Comments": null,
    "CommentCount": 0
  },
  {
    "Name": "鹤山华逸宾馆",
    "Price": 71,
    "Description": "鹤山华逸宾馆环境舒适，交通便利，是您出行的良好选择，舒适的被铺让人马上就想拉好被子好好睡一觉，还等什么？快来吧！",
    "Address": "沙坪镇新华路150号",
    "lat": 22.777018449704627,
    "lng": 112.96869007552186,
    "Comments": null,
    "CommentCount": 77
  },
  {
    "Name": "江门福海公寓",
    "Price": 72,
    "Description": "江门福海公寓，位于江海区外海镇麻三村金星路187号，地处工业园商业中心地段，周边设置齐全，交通便利，客房卫生干净整洁，房型种类齐全，供您多种选择入住体验。",
    "Address": "外海镇麻三村金星路187号",
    "lat": 22.574556532820907,
    "lng": 113.12524963971657,
    "Comments": null,
    "CommentCount": 0
  },
  {
    "Name": "开平雅景宾馆",
    "Price": 75,
    "Description": "酒店房间干净整洁，配套设施齐全，周边交通便利。我们的服务优质，是您下榻的好住处~！",
    "Address": "树德路1-21号",
    "lat": 22.451937035867935,
    "lng": 112.77683482932576,
    "Comments": null,
    "CommentCount": 2
  },
  {
    "Name": "鹤山大众宾馆",
    "Price": 75,
    "Description": "宾馆邻近鹤山剧院，地理位置优越，附近购物非常方便，餐饮齐全，是您休闲旅游的好去处。",
    "Address": "沙坪镇街道新华路1号",
    "lat": 22.771085116598417,
    "lng": 112.96936351809467,
    "Comments": null,
    "CommentCount": 16
  },
  {
    "Name": "鹤山丽都宾馆",
    "Price": 75,
    "Description": "位于鹤山市沙坪镇文明路80号，环境优雅，设施齐全。",
    "Address": "沙坪镇文明路80号",
    "lat": 22.76420457972303,
    "lng": 112.97725327789465,
    "Comments": null,
    "CommentCount": 0
  },
  {
    "Name": "台山百惠旅业",
    "Price": 76,
    "Description": "对于想要捕捉台山城市风采的旅客来说，台山百惠旅业是一个理想的选择。新会站是最近的交通出行选择，大约距此95km。\n酒店提供的休闲设施，旨在为旅客营造多姿多彩、奢华完美的住宿体验。",
    "Address": "铜鼓村涛声路18号",
    "lat": 21.88117912999382,
    "lng": 112.92476168386057,
    "Comments": null,
    "CommentCount": 3
  },
  {
    "Name": "开平嘉年华宾馆",
    "Price": 76,
    "Description": "开平嘉年华宾馆地处平市区中心地带，交通便利，出行方便。\n　　开平嘉年华宾馆集旅业、住宿、休闲于一体；客房设有多种元素主题套房，独具特色，是您商旅出行的上佳居停地。",
    "Address": "人民西路6号1-2幢2楼",
    "lat": 22.38358217034135,
    "lng": 112.702516427204,
    "Comments": null,
    "CommentCount": 23
  },
  {
    "Name": "江门便民日式旅馆",
    "Price": 76,
    "Description": "江门便民日式旅馆地点闹中带静，交通便利。宾馆客房干净卫生，雅致舒适，价格低廉，服务周到，内设停车场，是您在鹤山旅游、商务的好住宿选择。",
    "Address": "雅瑶镇中心路40号",
    "lat": 22.712678682700197,
    "lng": 113.02198996036202,
    "Comments": null,
    "CommentCount": 8
  },
  {
    "Name": "开平新景旅馆",
    "Price": 76,
    "Description": "交通便利，价格实惠。周边很多超市和水果店，我们的服务是您选择的可靠依据，欢迎入住！",
    "Address": "华龙路3-9号",
    "lat": 22.453064060421863,
    "lng": 112.77553055979354,
    "Comments": null,
    "CommentCount": 0
  },
  {
    "Name": "江门阳光公寓",
    "Price": 76,
    "Description": "公寓地理位置优越，新装修，房间宽敞设施齐全，性价比高。",
    "Address": "麻三古巷中路4号",
    "lat": 22.584603880965,
    "lng": 113.08855619524043,
    "Comments": null,
    "CommentCount": 15
  },
  {
    "Name": "江门鸿运来公寓",
    "Price": 76,
    "Description": "江门鸿运来公寓地处蓬江区荷塘镇民兴路，近民兴四街，周围餐饮、娱乐配套丰富，交通便捷。\n　　\n　　公寓客房宽敞洁净、舒适通风，房内设施齐全，服务热情周到，让你出门在外也能感受到家的温暖。",
    "Address": "荷塘镇民兴路17号",
    "lat": 22.6523567514533,
    "lng": 113.14523062940569,
    "Comments": null,
    "CommentCount": 51
  },
  {
    "Name": "江门建东宾馆",
    "Price": 77,
    "Description": "江门建东宾馆位于江门市蓬江区东仓里，比邻江门市地标商业街地王广场购物中心、长安路步行街、五邑大学、东湖公园、人民医院等，百米范围内有市区公交车站，距离江门轻轨站约2公里，出行便利。\n　　酒店拥有多款不同风格的温馨典雅客房，24小时热水供应，全店内配备宽带，无线网络现代化的便捷设施结合，致力于为悦享生活的顾客打造轻奢旅宿空间，为顾客诠释贴心，演绎温柔，营造安全舒适氛围,提供干净、舒适、快乐的住宿环境和氛围，满足客户的核心住宿需求。",
    "Address": "建设路东仓里71号（近江门地王广场）",
    "lat": 22.583058699928678,
    "lng": 113.09200946128074,
    "Comments": null,
    "CommentCount": 58
  },
  {
    "Name": "江门白云酒店",
    "Price": 77,
    "Description": "江门白云酒店位于跃进路100号。位于江门市区，临近江门客运站。环境优美，欢迎入住",
    "Address": "跃进路100号",
    "lat": 22.590261284146113,
    "lng": 113.09642722806544,
    "Comments": null,
    "CommentCount": 132
  },
  {
    "Name": "江门帝豪酒店",
    "Price": 77,
    "Description": "江门帝豪旅业壹号快捷酒店环境整洁、舒适、幽雅。",
    "Address": "江门新会区惠民东路1号外贸大厦",
    "lat": 22.53166306600728,
    "lng": 113.04594327677766,
    "Comments": null,
    "CommentCount": 3
  },
  {
    "Name": "江门新悦宾馆",
    "Price": 77,
    "Description": "江门新悦宾馆交通便利，地理位置优越，酒店旁边是江门市最大的东湖广场、绚丽多姿的激光音乐喷泉、秀丽的东湖公园，酒店对面就是东湖电影院，东湖百货等购物娱乐地方。",
    "Address": "跃进路91号",
    "lat": 22.589709894673096,
    "lng": 113.0969664009137,
    "Comments": null,
    "CommentCount": 9
  }
]
