[
  {
    "Name": "花舞印象.Art by teamLab",
    "Price": 2519,
    "Description": null,
    "Address": "香山东街华侨城文化创意园北区B1栋101",
    "lat": 22.54520705501415,
    "lng": 113.99977493645386,
    "Comments": null,
    "CommentCount": 3
  },
  {
    "Name": "鮨一日本料理(大中华店)",
    "Price": 1417,
    "Description": null,
    "Address": "深南路大中华国际金融中心C座1楼",
    "lat": 22.546728882857686,
    "lng": 113.92263474742099,
    "Comments": null,
    "CommentCount": 3
  },
  {
    "Name": "四叶寿司(华侨城店)",
    "Price": 1150,
    "Description": null,
    "Address": "深南大道9001-1号锦绣中华大门东侧50米",
    "lat": 22.53880721474277,
    "lng": 114.00126630326102,
    "Comments": null,
    "CommentCount": 20
  },
  {
    "Name": "植藤·匠日本料理",
    "Price": 1134,
    "Description": null,
    "Address": "海德一道88号中洲控股中心A座44F",
    "lat": 22.52323091057706,
    "lng": 113.9398558030249,
    "Comments": null,
    "CommentCount": 27
  },
  {
    "Name": "淞 · 怀石料理(华侨城店)",
    "Price": 1055,
    "Description": null,
    "Address": "开平街华侨城创意园F1-102",
    "lat": 22.543808296921576,
    "lng": 114.00018186884974,
    "Comments": null,
    "CommentCount": 14
  },
  {
    "Name": "瑞吉酒店-Elba欧尔巴意大利餐厅",
    "Price": 1031,
    "Description": null,
    "Address": "深南东路5016号京基100大厦99楼",
    "lat": 22.54930728127397,
    "lng": 114.11327853251859,
    "Comments": null,
    "CommentCount": 19
  },
  {
    "Name": "威斯汀扒房",
    "Price": 964,
    "Description": null,
    "Address": "深南大道9028-2号益田威斯汀酒店25楼",
    "lat": 22.54381096727642,
    "lng": 113.98240898417123,
    "Comments": null,
    "CommentCount": 51
  },
  {
    "Name": "老干杯深圳平安店",
    "Price": 801,
    "Description": null,
    "Address": "益田路5033号",
    "lat": 22.5385327976588,
    "lng": 114.06230161092985,
    "Comments": null,
    "CommentCount": 5
  },
  {
    "Name": "粤菜王府·天宫酒家",
    "Price": 796,
    "Description": null,
    "Address": "深南东路5016号京基100大厦95楼",
    "lat": 22.54930728127397,
    "lng": 114.11327853251859,
    "Comments": null,
    "CommentCount": 10
  },
  {
    "Name": "大林苑精细中国菜",
    "Price": 727,
    "Description": null,
    "Address": "怡景路2003号怡景花园O径3-5号",
    "lat": 22.560633999733923,
    "lng": 114.14313227884404,
    "Comments": null,
    "CommentCount": 33
  },
  {
    "Name": "潮禧荟",
    "Price": 704,
    "Description": null,
    "Address": "香蜜湖1979创意文化园A区1栋6楼",
    "lat": 22.543649494162775,
    "lng": 113.99986018564672,
    "Comments": null,
    "CommentCount": 16
  },
  {
    "Name": "新荣记(平安金融中心店)",
    "Price": 695,
    "Description": null,
    "Address": "益田路平安金融中心8楼",
    "lat": 22.539632298692748,
    "lng": 114.06209856424059,
    "Comments": null,
    "CommentCount": 3
  },
  {
    "Name": "东宝制造·海鲜火锅(香蜜湖1979店)",
    "Price": 681,
    "Description": null,
    "Address": "侨香东路1011号1979文化新天地B区3层",
    "lat": 22.558574226400122,
    "lng": 114.03755622890223,
    "Comments": null,
    "CommentCount": 15
  },
  {
    "Name": "莫尔顿扒房Morton's Grille(PAFC Mall平安金融中心店)",
    "Price": 625,
    "Description": null,
    "Address": "福田街道益田路5033号平安金融中心N901号",
    "lat": 22.539632298692748,
    "lng": 114.06209856424059,
    "Comments": null,
    "CommentCount": 21
  },
  {
    "Name": "御膳",
    "Price": 607,
    "Description": null,
    "Address": "深圳市罗湖区宝安南路1036号摩登克斯酒店20楼",
    "lat": 22.54597543958815,
    "lng": 114.11853891975274,
    "Comments": null,
    "CommentCount": 18
  },
  {
    "Name": "四季酒店·卓粤轩",
    "Price": 562,
    "Description": null,
    "Address": "福华三路138号四季酒店3楼",
    "lat": 22.538919874421104,
    "lng": 114.06456090947316,
    "Comments": null,
    "CommentCount": 51
  },
  {
    "Name": "京基100天宫会所",
    "Price": 550,
    "Description": null,
    "Address": "罗湖区 深南东路5016号京基100大厦95楼(近大剧院)",
    "lat": 22.54896115003586,
    "lng": 114.11196359291354,
    "Comments": null,
    "CommentCount": 20
  },
  {
    "Name": "王品牛排(海岸城店)",
    "Price": 467,
    "Description": null,
    "Address": "文心五路33号海岸城购物中心3层",
    "lat": 22.522662038064382,
    "lng": 113.94270989929025,
    "Comments": null,
    "CommentCount": 27
  },
  {
    "Name": "THE COMPASS BAR BY CURATOR",
    "Price": 464,
    "Description": null,
    "Address": "金田路皇岗商务中心皇庭V酒店40楼4002",
    "lat": 22.53687103932395,
    "lng": 114.07052700551571,
    "Comments": null,
    "CommentCount": 61
  },
  {
    "Name": "丽思卡尔顿酒店·Flavorz全日制餐厅",
    "Price": 428,
    "Description": null,
    "Address": "福华三路116号星河丽思卡尔顿酒店2楼",
    "lat": 22.53911598549118,
    "lng": 114.06804804163119,
    "Comments": null,
    "CommentCount": 14
  },
  {
    "Name": "王品牛排(益田假日广场店)",
    "Price": 426,
    "Description": null,
    "Address": "深南大道9028号益田假日广场3F",
    "lat": 22.54348918914104,
    "lng": 113.98158317191618,
    "Comments": null,
    "CommentCount": 40
  },
  {
    "Name": "ONE S壹会",
    "Price": 423,
    "Description": null,
    "Address": "深港现代服务业合作区前湾一路63号前海企业公馆19栋",
    "lat": 22.522685073441036,
    "lng": 113.90739544360201,
    "Comments": null,
    "CommentCount": 0
  },
  {
    "Name": "君悦酒店·乐厨",
    "Price": 415,
    "Description": null,
    "Address": "宝安南路1881号君悦酒店32楼",
    "lat": 22.543728436597767,
    "lng": 114.11766720408615,
    "Comments": null,
    "CommentCount": 21
  },
  {
    "Name": "1949全鸭季·北京烤鸭(欢乐海岸购物中心店)",
    "Price": 413,
    "Description": null,
    "Address": "南山区白石路东8号欢乐海岸购物中心三楼蓝楹坊3号",
    "lat": 22.53249720633547,
    "lng": 113.99691598933875,
    "Comments": null,
    "CommentCount": 10
  },
  {
    "Name": "利苑酒家(宝安南路店)",
    "Price": 392,
    "Description": null,
    "Address": "宝安南路1881号万象城二期3楼S348号",
    "lat": 22.543891411691707,
    "lng": 114.11754979555603,
    "Comments": null,
    "CommentCount": 40
  },
  {
    "Name": "备长屋串烧自家料理",
    "Price": 387,
    "Description": null,
    "Address": "福华路卓越时代广场二期中信证券大厦北门旁",
    "lat": 22.540143769792934,
    "lng": 114.06462819255584,
    "Comments": null,
    "CommentCount": 0
  },
  {
    "Name": "MaisonAnna法莫公馆",
    "Price": 381,
    "Description": null,
    "Address": "深南大道东方花园M7",
    "lat": 22.539280968926334,
    "lng": 113.98549295681653,
    "Comments": null,
    "CommentCount": 5
  },
  {
    "Name": "SHARK 鲨鱼餐吧(购物公园店)",
    "Price": 341,
    "Description": null,
    "Address": "福华路与中心二路交叉口购物公园B区1楼133号",
    "lat": 22.540991460699114,
    "lng": 114.06102625695367,
    "Comments": null,
    "CommentCount": 32
  },
  {
    "Name": "青蓬蒸品海鲜城(华润万象城店)",
    "Price": 341,
    "Description": null,
    "Address": "嘉宾路与和平路交叉口",
    "lat": 22.54551907107669,
    "lng": 114.12182693261319,
    "Comments": null,
    "CommentCount": 7
  },
  {
    "Name": "馥餐厅（四季酒店）",
    "Price": 336,
    "Description": null,
    "Address": "深圳市福田区福华三路139号四季酒店六楼",
    "lat": 22.538919874421104,
    "lng": 114.06456090947316,
    "Comments": null,
    "CommentCount": 10
  },
  {
    "Name": "鲜咖啡餐厅（深圳福田香格里拉大酒店）",
    "Price": 328,
    "Description": null,
    "Address": "益田路4088号香格里拉大酒店1楼(近会展中心、福田站、购物公园、中心城)",
    "lat": 22.541448100044605,
    "lng": 114.0663409018406,
    "Comments": null,
    "CommentCount": 0
  },
  {
    "Name": "佳兆业万豪酒店-金沙全日餐厅",
    "Price": 327,
    "Description": null,
    "Address": "棕榈大道33号佳兆业万豪酒店1楼",
    "lat": 22.575765028578033,
    "lng": 114.46570300770445,
    "Comments": null,
    "CommentCount": 16
  },
  {
    "Name": "东海朗廷酒店秀•Silk自助餐厅",
    "Price": 326,
    "Description": null,
    "Address": "深南大道7888号东海朗廷酒店",
    "lat": 22.542470025324313,
    "lng": 114.0270870171702,
    "Comments": null,
    "CommentCount": 13
  },
  {
    "Name": "彭年酒店旋转自助餐厅",
    "Price": 314,
    "Description": null,
    "Address": "深圳市罗湖区 嘉宾路2008号东佳大厦彭年酒店50楼(近阳光酒店)",
    "lat": 22.546377821703558,
    "lng": 114.12907631287295,
    "Comments": null,
    "CommentCount": 13
  },
  {
    "Name": "Westwood Fire&Smoke",
    "Price": 309,
    "Description": null,
    "Address": "深南大道9668号华润万象天地里巷NL119铺2栋",
    "lat": 22.547691021109696,
    "lng": 113.9624600442261,
    "Comments": null,
    "CommentCount": 6
  },
  {
    "Name": "knockcup一楼半",
    "Price": 308,
    "Description": null,
    "Address": "卓越城一期三栋一楼",
    "lat": 22.577238043617292,
    "lng": 114.06673391050109,
    "Comments": null,
    "CommentCount": 3
  },
  {
    "Name": "极上萬膳·日料自助(中心城店)",
    "Price": 307,
    "Description": null,
    "Address": "福华一路怡景商业中心城FL1025号铺",
    "lat": 22.54238931687148,
    "lng": 114.06323818155933,
    "Comments": null,
    "CommentCount": 1
  },
  {
    "Name": "寿司大(宝安店)",
    "Price": 295,
    "Description": null,
    "Address": "新安街道甲岸路与海秀路交汇处熙龙湾花园N23区",
    "lat": 22.55364302632614,
    "lng": 113.89531404297176,
    "Comments": null,
    "CommentCount": 0
  },
  {
    "Name": "御苑原味烧肉.日式料理(益田假日店)",
    "Price": 291,
    "Description": null,
    "Address": "沙河街道深南大道9028号益田假日广场L3-6号铺",
    "lat": 22.54348918914104,
    "lng": 113.98158317191618,
    "Comments": null,
    "CommentCount": 16
  },
  {
    "Name": "凯宾斯基酒店·四季餐厅(后海滨路店)",
    "Price": 288,
    "Description": null,
    "Address": "后海滨路与海德三道交叉口凯宾斯基酒店2楼",
    "lat": 22.5237334293513,
    "lng": 113.9456195108361,
    "Comments": null,
    "CommentCount": 8
  },
  {
    "Name": "Lodestone吸铁石 日式烧肉",
    "Price": 282,
    "Description": null,
    "Address": "工业三路1号汇港购物广场二楼219号商铺",
    "lat": 22.491286921855956,
    "lng": 113.922454098183,
    "Comments": null,
    "CommentCount": 1
  },
  {
    "Name": "隐秀山居酒店·秀厨自助西餐厅",
    "Price": 281,
    "Description": null,
    "Address": "爱联街道宝荷路",
    "lat": 22.69609930133847,
    "lng": 114.26921449213019,
    "Comments": null,
    "CommentCount": 10
  },
  {
    "Name": "三千·創作料理(金光华广场店)",
    "Price": 268,
    "Description": null,
    "Address": "人民南路2028号金光华广场6层",
    "lat": 22.545844928004264,
    "lng": 114.12671718294342,
    "Comments": null,
    "CommentCount": 12
  },
  {
    "Name": "柏瑞思私厨",
    "Price": 260,
    "Description": null,
    "Address": "侨香东路1011号1979文化新天地3层303A-2",
    "lat": 22.558574226400122,
    "lng": 114.03755622890223,
    "Comments": null,
    "CommentCount": 0
  },
  {
    "Name": "瑞吉酒店-The Drawing Room闲逸廊",
    "Price": 258,
    "Description": null,
    "Address": "深南东路5016号京基100大厦瑞吉酒店96楼",
    "lat": 22.54948602083175,
    "lng": 114.11325203250607,
    "Comments": null,
    "CommentCount": 0
  },
  {
    "Name": "大中华希尔顿酒店 “念” 全日制自助餐厅",
    "Price": 257,
    "Description": null,
    "Address": "深南大道1003号大中华国际金融中心B座2楼大中华希尔顿酒店内",
    "lat": 22.5449930114077,
    "lng": 114.07635997268173,
    "Comments": null,
    "CommentCount": 53
  },
  {
    "Name": "四季餐厅（观澜湖度假酒店）",
    "Price": 250,
    "Description": null,
    "Address": "深圳市龙华新区观澜镇高尔夫大道1号观澜湖高尔夫球会会所二楼",
    "lat": 22.729924320332305,
    "lng": 114.07915729603887,
    "Comments": null,
    "CommentCount": 9
  },
  {
    "Name": "香咖啡自助餐(深圳香格里拉大酒店)",
    "Price": 244,
    "Description": null,
    "Address": "建设路1002号深圳香格里拉大酒店2层",
    "lat": 22.53996702081892,
    "lng": 114.12457697006661,
    "Comments": null,
    "CommentCount": 25
  },
  {
    "Name": "Hui Hotel回酒店粤色中餐厅",
    "Price": 244,
    "Description": null,
    "Address": "红荔路3015号（红荔路与华富路交汇处）龙岗线华新A1出口，直走300米即可到达",
    "lat": 22.553394283786563,
    "lng": 114.12762420201656,
    "Comments": null,
    "CommentCount": 0
  },
  {
    "Name": "马哥孛罗咖啡厅·自助西餐",
    "Price": 243,
    "Description": null,
    "Address": "福华一路28号酒店1楼",
    "lat": 22.54238931687148,
    "lng": 114.06323818155933,
    "Comments": null,
    "CommentCount": 0
  }
]
