[
  {
    "Name": "励志公寓(深圳八卦路店)",
    "Price": 19,
    "Description": "励志公寓（深圳八卦路店）位于八卦路，临近经理大厦，交通便利，周边有许多便利店和餐厅。\n　　励志公寓（深圳八卦路店）客房舒适宜人，设施完备，服务细心，价格实惠，是外来求职者的上佳选择。",
    "Address": "八卦路86号12栋5楼",
    "lat": 22.56588700676382,
    "lng": 114.1078530070877,
    "Comments": null,
    "CommentCount": 0
  },
  {
    "Name": "深圳好运来公寓(罗湖火车站店)",
    "Price": 22,
    "Description": "深圳好运来公寓(罗湖火车站店)好运来公寓 客房整洁，宽敞明亮，环境卫生，性价比较高。",
    "Address": "宝岗路裕华小区3单元3楼、5楼,近裕华大厦",
    "lat": 22.57335299045955,
    "lng": 114.11776323294512,
    "Comments": null,
    "CommentCount": 0
  },
  {
    "Name": "深圳牧歌大学生公寓",
    "Price": 22,
    "Description": "公寓全新豪华装修，家私家电，花园式小区，保安24小时巡逻，闭路监控，安全卫生专人管理。100兆无线wifi，床上用品免费提供，拎包即可入住，贵重物品可免费寄存，免水电费，押金，随住随走，交通便利，公寓地理位置优越，位于深圳市中心区域离深圳人才市场，罗文人才市场，中南人才市场，劳动力人才市场步行仅5分钟，到深圳繁华商业圈华强北、地王大厦、东门不到半小时，小区外公交四通八达，到深圳多个旅游景点都有直达公交车，旁边有美丽的洪湖公园，超市、派出所、医院银行网吧快餐厅配套完善，是你求职、出差、旅游、考试、上班族的不错的选择。",
    "Address": "笋岗街道笋西社区桃园路86号桃花园2栋103",
    "lat": 22.56787758638463,
    "lng": 114.11939248964805,
    "Comments": null,
    "CommentCount": 0
  },
  {
    "Name": "嫦娥青年旅舍(深圳笋岗路店)",
    "Price": 23,
    "Description": "嫦娥青年旅舍（深圳笋岗路店）交通方便，靠近公交站，价格实惠，选择我们将是您性价比的选择，我们欢迎大家的到来！",
    "Address": "桂园街道松园北街68号公安局宿舍1栋一单元",
    "lat": 22.56103158263459,
    "lng": 114.11368088355638,
    "Comments": null,
    "CommentCount": 0
  },
  {
    "Name": "深圳时光青年旅舍",
    "Price": 23,
    "Description": "客房干净、卫生，具有基础性设施，住宿环境舒适。",
    "Address": "深圳龙岗区布吉京南路龙威花园1单元",
    "lat": 22.607594740056975,
    "lng": 114.12998270313223,
    "Comments": null,
    "CommentCount": 0
  },
  {
    "Name": "深圳君诚大学生公寓",
    "Price": 23,
    "Description": "深圳君诚大学生公寓，交通便利，到深圳各个旅游景点都有直通车。地理位置优越、经济实惠，您不在为了求职而匆忙奔波，君诚是您的求职驿站，欢迎和同学朋友包间，预祝求职顺利。",
    "Address": "笋岗街道金丽花园7栋3楼",
    "lat": 22.569101889379322,
    "lng": 114.12058534953435,
    "Comments": null,
    "CommentCount": 0
  },
  {
    "Name": "深圳顺风公寓",
    "Price": 23,
    "Description": "有温馨舒适的各类房型，设施齐全，卫生干净，四周环境优雅，各项配套设施齐全，是商旅宾客放松身心理想之地！",
    "Address": "宝安南路3091号",
    "lat": 22.56081134830077,
    "lng": 114.11477502685362,
    "Comments": null,
    "CommentCount": 0
  },
  {
    "Name": "深圳红岭大学生公寓",
    "Price": 23,
    "Description": "性价比高，住宿环境、通风采光较好。",
    "Address": "松园路红岭小学8号三栋（家乐福超市旁）",
    "lat": 22.55965918663695,
    "lng": 114.113607941149,
    "Comments": null,
    "CommentCount": 0
  },
  {
    "Name": "深圳舒心青年旅舍",
    "Price": 24,
    "Description": "深圳舒心青年旅舍位于深圳罗湖区松园北街，近笋岗东路，临近罗湖人才市场，周边有多家小吃店和便利店，交通、购物都十分便利。\n　　深圳舒心青年旅舍拥有多种房型供您选择，房间干净整洁，明亮舒适，格调清新，并配有24小时热水、独立淋浴间、空调等设施，价格经济实惠，是外来求职者的上佳选择。",
    "Address": "松园北街68号1栋2单元704",
    "lat": 22.560932942717113,
    "lng": 114.11361832825561,
    "Comments": null,
    "CommentCount": 0
  },
  {
    "Name": "深圳如意青年旅社红岭店",
    "Price": 24,
    "Description": "客房干净、卫生，具有基础性设施，住宿环境舒适。",
    "Address": "松园北街68号",
    "lat": 22.560932942717113,
    "lng": 114.11361832825561,
    "Comments": null,
    "CommentCount": 0
  },
  {
    "Name": "深圳青松大学生求职公寓青年旅社",
    "Price": 25,
    "Description": "旅客若想住在深圳的笋岗/八卦岭，那么深圳青松大学生求职公寓青年旅社将会是一个便捷的选择。酒店距离深圳宝安国际机场仅38km，距离深圳福田高铁站仅9km，交通都很便捷。周边交通是很便捷的，步行即可到达笋岗地铁站。附近有很多景点，包括东门老街和罗湖口岸均可供您游览参观。\n酒店提供的休闲设施，旨在为旅客营造多姿多彩、奢华完美的住宿体验。",
    "Address": "宝岗路194号（笋岗派出所正对面）",
    "lat": 22.575140977983526,
    "lng": 114.11908302339995,
    "Comments": null,
    "CommentCount": 0
  },
  {
    "Name": "湖南大学生公寓(深圳罗湖人才市场店)",
    "Price": 25,
    "Description": "湖南大学生公寓(深圳罗湖人才市场店)地处宝岗路桃花园小区，格调清新优雅，房内设施完善，让您感受深圳这座活力之城的独特魅力。",
    "Address": "宝岗路桃花园小区",
    "lat": 22.56787758638463,
    "lng": 114.11939248964805,
    "Comments": null,
    "CommentCount": 0
  },
  {
    "Name": "青年wifi求职公寓(深圳红岭地铁站店)",
    "Price": 26,
    "Description": "青年wifi求职公寓（深圳红岭地铁站店）格调清新优雅，背包客的理想选择。在深圳这个年轻有活力的城市，有你熟悉的温暖，也有你意想不到的惊喜。",
    "Address": "松园北街38号",
    "lat": 22.560052657770157,
    "lng": 114.114099297195,
    "Comments": null,
    "CommentCount": 0
  },
  {
    "Name": "深圳深诚青年公寓",
    "Price": 26,
    "Description": "客房整洁，宽敞明亮，环境卫生，性价比较高。",
    "Address": "深圳罗湖区罗湖区红岭中路2070号（中深国际大厦北侧）",
    "lat": 22.559033894142203,
    "lng": 114.11135526042237,
    "Comments": null,
    "CommentCount": 0
  },
  {
    "Name": "深圳和谐青年公寓",
    "Price": 27,
    "Description": "拥有各式客房，房间整洁干净，房内设施齐全。为您提供行李寄存服务，给您提供便利。",
    "Address": "笋岗街道宝岗路梅园新村八栋三单元2楼",
    "lat": 22.573554558422178,
    "lng": 114.11831012133943,
    "Comments": null,
    "CommentCount": 0
  },
  {
    "Name": "快乐家族青年公寓",
    "Price": 28,
    "Description": "快乐家族青年公寓，交通方便，价格实惠，客房设施完善，性价比高，是您出行的上佳选择。",
    "Address": "松园北街68号",
    "lat": 22.560932942717113,
    "lng": 114.11361832825561,
    "Comments": null,
    "CommentCount": 0
  },
  {
    "Name": "深圳帅帅大学生公寓",
    "Price": 28,
    "Description": "帅帅大学生公寓位于深圳市罗湖区田心村，深圳人才市场旁，本公寓为异地来深求职、实习工作的大学生提供安全、舒适、温馨、便捷等多功能住宿服务。",
    "Address": "宝岗路长盛楼306",
    "lat": 22.571529868945195,
    "lng": 114.11932224036057,
    "Comments": null,
    "CommentCount": 0
  },
  {
    "Name": "洋洋大学生公寓(深圳笋岗店)",
    "Price": 28,
    "Description": "本公寓靠近深圳人才市场，交通便利，环境优雅，欢迎新老顾客前来入住。",
    "Address": "宝岗路197号",
    "lat": 22.574775429342377,
    "lng": 114.11912156901566,
    "Comments": null,
    "CommentCount": 0
  },
  {
    "Name": "深圳新晨青年旅舍",
    "Price": 28,
    "Description": "深圳新晨青年旅舍位于装修时间2017年开业时间2018年，优美的环境，再搭配上细致周到的服务，定能满足您的品质需求。",
    "Address": "梅园新村小区7栋301",
    "lat": 22.573821618827314,
    "lng": 114.118357821362,
    "Comments": null,
    "CommentCount": 0
  },
  {
    "Name": "深圳嫦娥青年旅舍(笋岗店)",
    "Price": 29,
    "Description": "嫦娥青年旅舍（深圳梅园路店）交通方便，房间温馨，附近很多小吃店，选择我们将是您可靠的选择哦！",
    "Address": "罗湖区笋岗东路长虹大厦公安局宿舍5楼",
    "lat": 22.56104201239077,
    "lng": 114.1142255261869,
    "Comments": null,
    "CommentCount": 0
  },
  {
    "Name": "深圳温馨青年旅舍",
    "Price": 29,
    "Description": "深圳温馨青年旅舍室内陈设简洁、交通便利、干净卫生。欢迎新老顾客入住。",
    "Address": "松园北街68号2栋",
    "lat": 22.560932942717113,
    "lng": 114.11361832825561,
    "Comments": null,
    "CommentCount": 0
  },
  {
    "Name": "深圳长龙公寓",
    "Price": 30,
    "Description": "宾馆装潢温馨、设施配备较全，闹中取静，环境舒适，交通出行方便快捷。",
    "Address": "布吉镇新乐路19号b座402",
    "lat": 22.613474183770666,
    "lng": 114.12531453907654,
    "Comments": null,
    "CommentCount": 0
  },
  {
    "Name": "深圳文青公寓",
    "Price": 30,
    "Description": "深圳文青公寓地段优越，位于东门步行街商业街，地王大厦，万象城，深圳书城这一片。为满足客人需求，在本公寓设有多种房型和床位。客房宽敞明亮，简洁大方，格调温馨，布局合理，24小时热水供应，24小时空调，24小时提供无线WIFI，给您家一样的感觉，是您入住的极佳选择。",
    "Address": "宝安南路大信大厦28楼",
    "lat": 22.555552679701844,
    "lng": 114.11703686311,
    "Comments": null,
    "CommentCount": 0
  },
  {
    "Name": "深圳人才大学生公寓",
    "Price": 30,
    "Description": "交通便利，是你在深圳求职、旅游、工作的理想住处。拎包入住，欢迎光临！周边靠近很多公交线路哦~",
    "Address": "宝岗路桃花园10栋7楼",
    "lat": 22.567780636202265,
    "lng": 114.11955813718403,
    "Comments": null,
    "CommentCount": 0
  },
  {
    "Name": "深圳Uhome优家青年旅舍",
    "Price": 32,
    "Description": "深圳Uhome优家青年旅舍位于罗湖区人民南路华民大厦，临近罗湖火车站，位置优越，交通十分便利。公寓周边有多家餐馆和便利店，房间干净，布置温馨，设施齐全，服务热忱，适合旅行入住。",
    "Address": "人民南路1001号华民大厦5楼",
    "lat": 22.540536405386863,
    "lng": 114.12491608039652,
    "Comments": null,
    "CommentCount": 0
  },
  {
    "Name": "深圳宏升青年旅舍",
    "Price": 32,
    "Description": "深圳宏升青年旅舍，配备有100兆光纤，24小时热水，空调，洗衣机，监控，亲们只需带上换洗衣服！配备应有尽有！总之配备齐全！交通十分便利，地铁口20米，附近有大型商场，步行街，美食街，各大银行，娱乐场所，人才市场，书城，是考研，培训，旅游，及在深工作的大学生理想驿站！价格18-20-25-30元一天，月租更便宜！欢迎帅锅美女入住宏升青年旅游舍！",
    "Address": "龙华地铁站A出口华富市场1栋401",
    "lat": 22.657273132354895,
    "lng": 114.03071176973232,
    "Comments": null,
    "CommentCount": 0
  },
  {
    "Name": "深圳光明区顺发住宿",
    "Price": 33,
    "Description": "深圳光明区顺发住宿位于广东省深圳市宝安区光辉路，附近有诸多公交站点，步行几分钟就能到达，交通便利；周边还有长圳公园、天王殿、深圳生态养生园等景点供您参观游赏。元和便利店、星记客家王等众多餐馆、超市散落周围，吃饭、购物都非常方便。\n　　酒店外观虽简朴，但客房内部卫生状况良好，且床上用品，均采用一客一换一消毒，宾客可放心使用。房间内部空间紧凑，空调、wifi等各类生活设施完善，且墙纸素净，床铺整洁，环境相对舒宜、静谧。光明住宿愿您在这里舒心入住，满意而归；在此恭候您的光临。",
    "Address": "玉塘街道红星社区星湖路",
    "lat": 22.71514125348456,
    "lng": 113.91214415601783,
    "Comments": null,
    "CommentCount": 0
  },
  {
    "Name": "深圳时代青年旅舍",
    "Price": 33,
    "Description": "旅客若想住在深圳的深圳北站，那么深圳时代青年旅舍将会是一个便捷的选择。酒店距离深圳宝安国际机场仅30km，距离深圳北站仅6km，交通都很便捷。周边交通是很便捷的，步行即可到达龙华地铁站。附近有很多景点，包括龙华公园和奈瑞儿塑身美颜(龙华店)均可供您游览参观。\n酒店提供的休闲设施，旨在为旅客营造多姿多彩、奢华完美的住宿体验。",
    "Address": "人民路和和平路交叉处华富市场六单元105",
    "lat": 22.658146524914226,
    "lng": 114.03029621360353,
    "Comments": null,
    "CommentCount": 0
  },
  {
    "Name": "深圳小米青年旅舍",
    "Price": 33,
    "Description": "经过一座城，寻觅一间房，消去您满身的疲劳，我们将以热情的服务，舒适的房间，期待您的到来。我们，在这里，等您来。",
    "Address": "民治街道南景新村A3-4栋607号",
    "lat": 22.622890269677182,
    "lng": 114.04503237650655,
    "Comments": null,
    "CommentCount": 0
  },
  {
    "Name": "深圳明月青年旅舍",
    "Price": 33,
    "Description": "深圳明月青年旅舍位于深圳罗湖区宝岗路田心村裕华大厦 ，近梨园路，步行五分钟即到深圳人才市场，楼下即是田心村公交站台，周边商业繁华，出行方便。\n　　深圳明月青年旅舍装修简洁，床位整洁，床上用品一客一换，安全卫生。旅舍所处小区内设有电子监控，保安二十四小时巡逻，保障您的安全，是您出行的经济之选。",
    "Address": "宝岗路田心村200栋/裕华小区",
    "lat": 22.574781396730593,
    "lng": 114.11845528750979,
    "Comments": null,
    "CommentCount": 0
  },
  {
    "Name": "深圳凡梦青年旅馆",
    "Price": 34,
    "Description": "经过一座城，寻觅一间房，消去您满身的疲劳，我们将以热情的服务，舒适的房间，期待您的到来。我们，在这里，等您来。",
    "Address": "华富商住楼2单元701室",
    "lat": 22.558792003468742,
    "lng": 114.23465299162862,
    "Comments": null,
    "CommentCount": 0
  },
  {
    "Name": "深圳伴旅青年旅舍",
    "Price": 34,
    "Description": "旅客若想住在深圳的深圳北站，那么深圳伴旅青年旅舍将会是一个便捷的选择。酒店距离深圳宝安国际机场仅30km，距离深圳北站仅7km，交通都很便捷。周边交通是很便捷的，步行即可到达龙华地铁站。附近有很多景点，包括龙华公园和奈瑞儿塑身美颜(龙华店)均可供您游览参观。\n酒店提供的休闲设施，旨在为旅客营造多姿多彩、奢华完美的住宿体验。",
    "Address": "龙华新区人民路和平大厦三单元(工商银行旁)",
    "lat": 22.72410379259278,
    "lng": 114.0616326131727,
    "Comments": null,
    "CommentCount": 0
  },
  {
    "Name": "深圳江华青年旅舍",
    "Price": 34,
    "Description": "这里是我精心准备的家。有缘来住下的朋友，希望它能为你带来一段温馨难忘的旅途体验。",
    "Address": "华富华侨楼华侨花园五幢302",
    "lat": 22.61923687721754,
    "lng": 114.06306334435796,
    "Comments": null,
    "CommentCount": 0
  },
  {
    "Name": "深圳猫的树青年旅舍",
    "Price": 34,
    "Description": "深圳猫的树青年旅舍位于深圳市龙华区环境优美、绿树成荫的龙华公园“花街”。地处深圳北站商圈，近龙华地铁站C出口，步行可到达。地理位置优越，交通便利。 深圳猫的树青年旅舍周边为龙华区商业中心，有大型购物中心，美食街，影院，星巴克，用餐购物便利。近龙华区大型人才市场——三和人力。旅社内部设施齐全，每个床位都设有电源插口，床上用品精挑细选，只为让每位住客能够得到优质的住宿体验。",
    "Address": "华园道491号",
    "lat": 22.548456637984177,
    "lng": 114.06455183658751,
    "Comments": null,
    "CommentCount": 0
  },
  {
    "Name": "深圳四聚缘青年旅社",
    "Price": 35,
    "Description": "深圳四聚缘青年旅社位于地铁四号线，距离北站仅四个地铁站，且龙华地铁线直通福田口岸以及市区各交通要道。交通极其便利，房间视线全无遮挡，wifi, 茶几吹风筒洗衣机等设备，公寓旁边便是大型的购物广场，吃喝玩乐应有尽有，我们热情的欢迎各位有爱，有智，有才有品青年入驻，度过每一个开心的今天。",
    "Address": "人民路华富市场华侨楼5栋602",
    "lat": 22.657273132354895,
    "lng": 114.03071176973232,
    "Comments": null,
    "CommentCount": 0
  },
  {
    "Name": "深圳聚缘青年旅社",
    "Price": 35,
    "Description": "深圳聚缘青年旅社位于龙华地铁站A出口，交通十分方便，小区内设有停车场，附近有工商银行，华富市场，夜市，美食街，有百佳华超市华润万家超市，全新豪华装修，Wi-Fi，冰箱，洗衣机，24小时热水，独立卫生间，大厅有沙发，超大阳台光线非常好，欢迎需要的朋友入住。",
    "Address": "和平东路和平大厦A栋2单元505",
    "lat": 22.677994657772114,
    "lng": 114.04676790275124,
    "Comments": null,
    "CommentCount": 0
  },
  {
    "Name": "深圳齐聚青年旅社",
    "Price": 35,
    "Description": "深圳龙华齐聚青年旅馆 安全 卫生 温馨 舒适 便宜，是五湖四海来深圳求职 旅游 考研 培训以及工作的理想驿站。在这里会给你创业历程中留下一段美好的回忆，这里将是你人生奔向辉煌的起跑线。本旅馆恭祝大家来的欢心 住的开心 走的舒心 工作顺心1 本旅馆全新装修 配备100M宽带 空调 风扇 洗衣机 24 小时热水器2 本旅馆讲究卫生 专人管理打扫卫生 保证一客一换洗床上用品 大学生求职和附近上班族为主 素质高好相处3 交通便利一分钟内可步行至地铁站 附近有60多条公交线路 新一佳超市 佳华商场 华润万象家 友谊书城 龙华公园 三和人才市场 新海信人才市场购物 娱乐 找工作十分便利",
    "Address": "深圳市龙华新区华富市场第三排七单元302",
    "lat": 22.657273132354895,
    "lng": 114.03071176973232,
    "Comments": null,
    "CommentCount": 0
  },
  {
    "Name": "深圳龙岗港湾青年旅舍",
    "Price": 35,
    "Description": "无",
    "Address": "翠园街38号华隆园A座1805",
    "lat": 22.55628137154879,
    "lng": 114.1333199081007,
    "Comments": null,
    "CommentCount": 0
  },
  {
    "Name": "深圳梦想青年旅舍",
    "Price": 35,
    "Description": "坐落于深圳北站，不论您是商务出差还是休闲旅游深圳梦想青年旅舍都是理想的下榻之处。酒店地理位置优越，距离深圳宝安国际机场30km，距离深圳北站7km。离这最近的是龙华地铁站，距离仅300m。著名的景点龙华公园和奈瑞儿塑身美颜(龙华店)均在酒店附近，您可根据时间提前做好行程安排。\n酒店休闲区提供了各类设施，您可以在这里舒缓身心压力。",
    "Address": "龙华新区龙华地铁站A出口20米",
    "lat": 22.65634487040592,
    "lng": 114.02847238392722,
    "Comments": null,
    "CommentCount": 0
  },
  {
    "Name": "深圳哈寓青年旅社",
    "Price": 35,
    "Description": "深圳哈寓青年旅社位于荔园新村43栋，4号线龙华地铁站C口旁30米距离，距离深圳北站10分钟车程，交通十分便利。客房选用：上下铺实木床，高密度海棉精品床垫，每张床独立设有充电安全插座，提供热水器淋浴、冰箱、洗衣机。千兆光纤WiFi，网咖级网速。 致力于为每一位住店旅客提供，安静、舒适的睡眠环境！旅舍内公共区域24/小时7/天云储存监控覆盖，房间为无烟房(吸烟有害健康)，室外设立吸烟区域，房子户型南北通透，两个大阳台在这里你可以结识很多新的朋友，同样你也可以有自己私密空间，这里设有厨房，还可以一展你的厨艺！ 周边商业选择多样，楼下就是购物广场和龙华美食街，百米内大型购物中心。",
    "Address": "荔园新村77栋401室",
    "lat": 22.643091285516466,
    "lng": 114.0787470399126,
    "Comments": null,
    "CommentCount": 0
  },
  {
    "Name": "深圳科技园大学生公寓(凯丽花园店)",
    "Price": 35,
    "Description": "深圳科技园大学生公寓(凯丽花园店)位于高新中四道。\n　　公寓环境干净卫生，基层配设齐全，是商旅出行的便捷之选。",
    "Address": "高新中四道6号凯丽花园7栋209",
    "lat": 22.54939656763696,
    "lng": 113.94620565518117,
    "Comments": null,
    "CommentCount": 0
  },
  {
    "Name": "深圳林智青年旅舍",
    "Price": 35,
    "Description": "深圳林智青年旅舍安全、卫生、温馨、舒适、便宜，是五湖四海来深圳求职、考研、培训、旅游及在深圳工作的大学生的理想驿站。在这里会给你人生创业历程中留下一段美好的记忆，这里将成为你铸造生命辉煌的起跑线。本旅舍恭祝大家来的欢心，住的开心，走的舒心，工作顺心。",
    "Address": "人民路和平大厦A座2单元406",
    "lat": 22.547176240437956,
    "lng": 114.12131612106647,
    "Comments": null,
    "CommentCount": 0
  },
  {
    "Name": "深圳宋成公寓",
    "Price": 35,
    "Description": "这里是我精心准备的家。有缘来住下的朋友，希望它能为你带来一段温馨难忘的旅途体验。",
    "Address": "凯丽花园(6栋三单元)",
    "lat": 22.549076388137202,
    "lng": 113.94583456517513,
    "Comments": null,
    "CommentCount": 0
  },
  {
    "Name": "基地太空仓青年公寓(深圳龙华站)",
    "Price": 36,
    "Description": "本店居住舒适 设施齐全 距地铁4号线龙华站A出口步行30米可到，乘地铁1小时内可达世界之窗、欢乐谷、深圳机场、罗湖口岸、大梅沙，出行非常便利。 紧邻华润万家、龙华公园，龙华 步行街10分钟可到。家庭式旅馆，楼下周边很多美食小吃，是您下榻入住的好地方，可以做饭，24小时热水洗澡，空调开放，WiFi免费，安全，卫生，方便，实惠！ 欢迎您下榻本店 热情期待您的到来！",
    "Address": "宝安区龙华和平路华富市场八梯302(龙华地铁A出口30米)",
    "lat": 22.66193043844505,
    "lng": 114.0352388701789,
    "Comments": null,
    "CommentCount": 0
  },
  {
    "Name": "深圳时光海岸青年旅舍",
    "Price": 36,
    "Description": "深圳时光海岸青年旅舍地段优越。客房温馨舒适，干净整洁，是您理想的入住场所。",
    "Address": "布吉龙珠花园A区",
    "lat": 22.608922946888978,
    "lng": 114.13097524088987,
    "Comments": null,
    "CommentCount": 0
  },
  {
    "Name": "深圳随园国际青年旅舍",
    "Price": 36,
    "Description": "深圳随园国际青年旅舍位于龙华华富市场内，周边各种米饭、面食、风味小吃应有尽有；附近有多个商圈、深圳北站、三和人才市场，其网吧成堆1.5-2.0元/小时。欢迎入住！",
    "Address": "华富小区华富商住楼B栋-416",
    "lat": 22.65091674967289,
    "lng": 114.04699741980897,
    "Comments": null,
    "CommentCount": 0
  },
  {
    "Name": "深圳暖心青年公寓",
    "Price": 36,
    "Description": "酒店位于沙井地铁站C出口，附近交通便利，紧靠佳华商场，毗邻华润万家",
    "Address": "新桥街道万丰社区新沙路与中兴路交汇处鸿达兴花园D602",
    "lat": 22.733821060465765,
    "lng": 113.83272218115985,
    "Comments": null,
    "CommentCount": 0
  },
  {
    "Name": "深圳锐爱天下国际青年旅社",
    "Price": 36,
    "Description": "经过一座城，寻觅一间房，消去您满身的疲劳，我们将以热情的服务，舒适的房间，期待您的到来。我们，在这里，等您来。",
    "Address": "龙华街道景龙社区和平东路和平大厦A座407",
    "lat": 22.677994657772114,
    "lng": 114.04676790275124,
    "Comments": null,
    "CommentCount": 0
  },
  {
    "Name": "深圳盛丰住宿",
    "Price": 36,
    "Description": "本住宿提供24小时热水，房间装修简单，用最真诚的服务迎接您的到来。",
    "Address": "观澜街道大布巷恒兴园C栋2楼",
    "lat": 22.728071702300713,
    "lng": 114.04673789934722,
    "Comments": null,
    "CommentCount": 0
  },
  {
    "Name": "深圳约在蔚蓝星空青年旅舍",
    "Price": 36,
    "Description": "深圳约在蔚蓝星空青年旅舍是深圳新开的酒店之一，于2016-08-01正式运营。从酒店到深圳宝安国际机场29km远，到深圳北站7km远，均很便捷。除此之外，至龙华地铁站只需步行前往。包括龙华公园和奈瑞儿塑身美颜(龙华店)都在酒店周边，对于入住旅客想在该地区畅游会很方便。\n酒店对客房的装饰十分考究，每间设施齐全的客房都配备有房间内高速上网。除此之外，配备有拖鞋和24小时热水的浴室是您消除一天疲劳的好地方。\n优美的环境，再搭配上细致周到的服务，酒店的休闲区定能满足您的品质需求。",
    "Address": "龙华新区和平路和平大厦A栋三单元",
    "lat": 22.65863278743314,
    "lng": 114.03066784259289,
    "Comments": null,
    "CommentCount": 0
  }
]
